{
  "generated": "2026-07-06T21:03:51+00:00",
  "places": [
    {
      "name": "속초관광수산시장",
      "lat": 38.2044495,
      "lng": 128.5901534,
      "current": null,
      "weekly": null,
      "footfall": null,
      "source": "google",
      "updated": "2026-07-06T21:03:10+00:00"
    },
    {
      "name": "만석닭강정 중앙시장점",
      "lat": 38.2044423,
      "lng": 128.5900381,
      "current": null,
      "weekly": null,
      "footfall": null,
      "source": "google",
      "updated": "2026-07-06T21:03:12+00:00"
    },
    {
      "name": "중앙닭강정",
      "lat": 38.2047841,
      "lng": 128.5898788,
      "current": null,
      "weekly": null,
      "footfall": null,
      "source": "google",
      "updated": "2026-07-06T21:03:13+00:00"
    },
    {
      "name": "예스닭강정 속초중앙시장점",
      "lat": 38.2056117,
      "lng": 128.5887364,
      "current": null,
      "weekly": null,
      "footfall": null,
      "source": "google",
      "updated": "2026-07-06T21:03:15+00:00"
    },
    {
      "name": "황부자",
      "lat": 38.2048649,
      "lng": 128.5899043,
      "current": null,
      "weekly": null,
      "footfall": null,
      "source": "google",
      "updated": "2026-07-06T21:03:16+00:00"
    },
    {
      "name": "도리스 파티세리",
      "lat": 38.20383340000001,
      "lng": 128.5897526,
      "current": null,
      "weekly": null,
      "footfall": null,
      "source": "google",
      "updated": "2026-07-06T21:03:18+00:00"
    },
    {
      "name": "속초마약강정",
      "lat": 38.2049679,
      "lng": 128.5879638,
      "current": null,
      "weekly": null,
      "footfall": null,
      "source": "google",
      "updated": "2026-07-06T21:03:19+00:00"
    },
    {
      "name": "속초 황금물회",
      "lat": 38.2038561,
      "lng": 128.5899235,
      "current": null,
      "weekly": null,
      "footfall": null,
      "source": "google",
      "updated": "2026-07-06T21:03:20+00:00"
    },
    {
      "name": "북청 전통 아바이순대",
      "lat": 38.2021528,
      "lng": 128.5937611,
      "current": null,
      "weekly": null,
      "footfall": null,
      "source": "google",
      "updated": "2026-07-06T21:03:22+00:00"
    },
    {
      "name": "2대송림순대집 아바이마을본점",
      "lat": 38.20245,
      "lng": 128.5939297,
      "current": null,
      "weekly": null,
      "footfall": null,
      "source": "google",
      "updated": "2026-07-06T21:03:23+00:00"
    },
    {
      "name": "아바이순대국",
      "lat": 38.2111269,
      "lng": 128.5939469,
      "current": null,
      "weekly": null,
      "footfall": null,
      "source": "google",
      "updated": "2026-07-06T21:03:25+00:00"
    },
    {
      "name": "청초수물회",
      "lat": 38.1921359,
      "lng": 128.5904217,
      "current": null,
      "weekly": null,
      "footfall": null,
      "source": "google",
      "updated": "2026-07-06T21:03:26+00:00"
    },
    {
      "name": "할리스 속초영랑해변점",
      "lat": 38.2181431,
      "lng": 128.5937599,
      "current": null,
      "weekly": null,
      "footfall": null,
      "source": "google",
      "updated": "2026-07-06T21:03:28+00:00"
    },
    {
      "name": "Another Blue",
      "lat": 38.2267592,
      "lng": 128.5873502,
      "current": null,
      "weekly": null,
      "footfall": null,
      "source": "google",
      "updated": "2026-07-06T21:03:29+00:00"
    },
    {
      "name": "카페 우디",
      "lat": 38.2165824,
      "lng": 128.5952247,
      "current": null,
      "weekly": null,
      "footfall": null,
      "source": "google",
      "updated": "2026-07-06T21:03:31+00:00"
    },
    {
      "name": "커피해요",
      "lat": 38.216136,
      "lng": 128.5957052,
      "current": null,
      "weekly": null,
      "footfall": null,
      "source": "google",
      "updated": "2026-07-06T21:03:33+00:00"
    },
    {
      "name": "바다담다",
      "lat": 38.2128003,
      "lng": 128.6010315,
      "current": null,
      "weekly": null,
      "footfall": null,
      "source": "google",
      "updated": "2026-07-06T21:03:34+00:00"
    },
    {
      "name": "봉브레드",
      "lat": 38.2029295,
      "lng": 128.5684361,
      "current": null,
      "weekly": null,
      "footfall": null,
      "source": "google",
      "updated": "2026-07-06T21:03:35+00:00"
    },
    {
      "name": "대포항 선물가게",
      "lat": 38.1745245,
      "lng": 128.6061033,
      "current": null,
      "weekly": null,
      "footfall": null,
      "source": "google",
      "updated": "2026-07-06T21:03:37+00:00"
    },
    {
      "name": "희희훌훌",
      "lat": 38.1864087,
      "lng": 128.6034749,
      "current": null,
      "weekly": null,
      "footfall": null,
      "source": "google",
      "updated": "2026-07-06T21:03:38+00:00"
    },
    {
      "name": "보구밍상점",
      "lat": 38.1989639,
      "lng": 128.5806822,
      "current": null,
      "weekly": null,
      "footfall": null,
      "source": "google",
      "updated": "2026-07-06T21:03:39+00:00"
    },
    {
      "name": "단천면옥",
      "lat": 38.1925394,
      "lng": 128.5823362,
      "current": null,
      "weekly": null,
      "footfall": null,
      "source": "google",
      "updated": "2026-07-06T21:03:41+00:00"
    },
    {
      "name": "카페너래",
      "lat": 38.20625940000001,
      "lng": 128.5204621,
      "current": null,
      "weekly": null,
      "footfall": null,
      "source": "google",
      "updated": "2026-07-06T21:03:42+00:00"
    },
    {
      "name": "88생선구이",
      "lat": 38.2037191,
      "lng": 128.5918819,
      "current": null,
      "weekly": null,
      "footfall": null,
      "source": "google",
      "updated": "2026-07-06T21:03:43+00:00"
    },
    {
      "name": "속초포장마차거리",
      "lat": 38.2159969,
      "lng": 128.5958357,
      "current": null,
      "weekly": null,
      "footfall": null,
      "source": "google",
      "updated": "2026-07-06T21:03:44+00:00"
    },
    {
      "name": "동명항포차",
      "lat": 38.2122562,
      "lng": 128.5999734,
      "current": null,
      "weekly": null,
      "footfall": null,
      "source": "google",
      "updated": "2026-07-06T21:03:47+00:00"
    },
    {
      "name": "당근마차",
      "lat": 38.2128003,
      "lng": 128.6010314,
      "current": null,
      "weekly": null,
      "footfall": null,
      "source": "google",
      "updated": "2026-07-06T21:03:48+00:00"
    },
    {
      "name": "알찬생선구이",
      "lat": 38.2116275,
      "lng": 128.5945555,
      "current": null,
      "weekly": null,
      "footfall": null,
      "source": "google",
      "updated": "2026-07-06T21:03:49+00:00"
    },
    {
      "name": "동명항생선숯불구이",
      "lat": 38.2109885,
      "lng": 128.5863226,
      "current": null,
      "weekly": null,
      "footfall": null,
      "source": "google",
      "updated": "2026-07-06T21:03:51+00:00"
    }
  ]
}